{
"type": "FeatureCollection",
"crs": { "type": "name", "properties": { "name": "urn:ogc:def:crs:OGC:1.3:CRS84" } },
                                                                                
"features": [
{ "type": "Feature", "properties": { "NOM": "DELAIR TECH", "CODE_P": "31400", "VILLE": "TOULOUSE", "PAYS": "FRANCE", "WEB": "http:\/\/www.delair-tech.com", "VERIF": "2014-12-21", "AGR": 0, "FOR_AGR": 0, "LRG": 0, "FOR_LRG": 0, "PUB": 0, "FOR_PUB": 0, "OBS": 1, "FOR_OBS": 1, "AUT": 0, "FOR_AUT": 0, "S1": 0, "S2": 1, "S3": 1, "S4": 1, "FPDC": 0 }, "geometry": { "type": "Point", "coordinates": [ 1.4925797, 43.5627329 ] } },
{ "type": "Feature", "properties": { "NOM": "DELTA DRONE", "CODE_P": "38000", "VILLE": "GRENOBLE", "PAYS": "FRANCE", "WEB": "http:\/\/www.deltadrone.com", "VERIF": "2014-12-21", "AGR": 0, "FOR_AGR": 0, "LRG": 1, "FOR_LRG": 1, "PUB": 0, "FOR_PUB": 0, "OBS": 1, "FOR_OBS": 1, "AUT": 0, "FOR_AUT": 0, "S1": 1, "S2": 1, "S3": 1, "S4": 1, "FPDC": 0 }, "geometry": { "type": "Point", "coordinates": [ 5.7057149, 45.1851228 ] } },
{ "type": "Feature", "properties": { "NOM": "RECTIMO AIR TRANSPORTS", "CODE_P": "73420", "VILLE": "LE VIVIERS DU LAC", "PAYS": "FRANCE", "WEB": "http:\/\/www.rectimo-air-transports.com", "VERIF": "2014-12-21", "AGR": 0, "FOR_AGR": 0, "LRG": 0, "FOR_LRG": 0, "PUB": 0, "FOR_PUB": 0, "OBS": 1, "FOR_OBS": 1, "AUT": 0, "FOR_AUT": 0, "S1": 0, "S2": 1, "S3": 1, "S4": 1, "FPDC": 1 }, "geometry": { "type": "Point", "coordinates": [ 5.905503, 45.648161 ] } },
{ "type": "Feature", "properties": { "NOM": "REDBIRD FRANCE", "CODE_P": "75007", "VILLE": "PARIS", "PAYS": "FRANCE", "WEB": "http:\/\/www.redbird.fr\/", "VERIF": "2014-12-21", "AGR": 0, "FOR_AGR": 0, "LRG": 0, "FOR_LRG": 0, "PUB": 0, "FOR_PUB": 0, "OBS": 1, "FOR_OBS": 1, "AUT": 0, "FOR_AUT": 0, "S1": 1, "S2": 1, "S3": 1, "S4": 1, "FPDC": 1 }, "geometry": { "type": "Point", "coordinates": [ 2.3092419, 48.858273 ] } },
{ "type": "Feature", "properties": { "NOM": "AEROMAPPER", "CODE_P": "92200", "VILLE": "NEUILLY SUR SEINE", "PAYS": "FRANCE", "WEB": null, "VERIF": "2014-12-20", "AGR": 0, "FOR_AGR": 0, "LRG": 0, "FOR_LRG": 0, "PUB": 0, "FOR_PUB": 0, "OBS": 1, "FOR_OBS": 1, "AUT": 0, "FOR_AUT": 0, "S1": 1, "S2": 1, "S3": 0, "S4": 1, "FPDC": 1 }, "geometry": { "type": "Point", "coordinates": [ 2.2504349, 48.8780959 ] } }
]
}
